<?xml version="1.0" encoding="UTF-8"?>
<kml xmlns="http://www.opengis.net/kml/2.2" xmlns:gx="http://www.google.com/kml/ext/2.2" xmlns:kml="http://www.opengis.net/kml/2.2" xmlns:atom="http://www.w3.org/2005/Atom">
<Document>
	<name>Shipwrecks</name>
	<description>A map of shipwrecks featured on Shipwreckology</description>
	<StyleMap id="icon-22">
		<Pair>
			<key>normal</key>
			<styleUrl>#icon-22-normal</styleUrl>
		</Pair>
		<Pair>
			<key>highlight</key>
			<styleUrl>#icon-22-highlight</styleUrl>
		</Pair>
	</StyleMap>
	<Style id="icon-22-highlight">
		<IconStyle>
			<scale>1.1</scale>
			<Icon>
				<href>http://www.gstatic.com/mapspro/images/stock/22-blue-dot.png</href>
			</Icon>
			<hotSpot x="16" y="31" xunits="pixels" yunits="insetPixels"/>
		</IconStyle>
		<LabelStyle>
			<scale>1.1</scale>
		</LabelStyle>
	</Style>
	<Style id="icon-22-normal">
		<IconStyle>
			<scale>1.1</scale>
			<Icon>
				<href>http://www.gstatic.com/mapspro/images/stock/22-blue-dot.png</href>
			</Icon>
			<hotSpot x="16" y="31" xunits="pixels" yunits="insetPixels"/>
		</IconStyle>
		<LabelStyle>
			<scale>0</scale>
		</LabelStyle>
	</Style>
	<Folder>
		<name>Untitled layer</name>
		<Placemark>
			<name>Wreck of USS Inaugural</name>
			<description>Low Water Reveals Wreck of WWII Minesweeper in St. Louis (http://shipwreckology.com/2012/10/06/low-water-reveals-wreck-of-wwii-minesweeper-in-st-louis/)</description>
			<styleUrl>#icon-22</styleUrl>
			<Point>
				<coordinates>-90.18863399999999,38.611656,0</coordinates>
			</Point>
		</Placemark>
		<Placemark>
			<name>Poyang Lake</name>
			<description>The Largest Naval Battle You&apos;ve Probably Never Heard of (http://shipwreckology.com/2012/10/04/the-largest-naval-battle-youve-never-heard-of/)</description>
			<styleUrl>#icon-22</styleUrl>
			<Point>
				<coordinates>116.277707,29.125313,0</coordinates>
			</Point>
		</Placemark>
		<Placemark>
			<name>Wreck of Lamma IV</name>
			<description>Hong Kong Ferry &amp; Pleasure Boat Collide, 38 Perish (http://shipwreckology.com/2012/10/04/hong-kong-ferry-pleasure-boat-collide-38-perish/)</description>
			<styleUrl>#icon-22</styleUrl>
			<Point>
				<coordinates>114.104176,22.237624,0</coordinates>
			</Point>
		</Placemark>
		<Placemark>
			<name>Antikythera Mechanism Wreck</name>
			<description>New Expedition Planned to Antikythera Mechanism Wreck (http://shipwreckology.com/2012/10/03/new-expedition-planned-to-shipwreck-where-ancient-computer-discovered/)</description>
			<styleUrl>#icon-22</styleUrl>
			<Point>
				<coordinates>23.275175,35.945443,0</coordinates>
			</Point>
		</Placemark>
		<Placemark>
			<name>Wreck of M/V Estonia</name>
			<description>September 28, 1994 - M/V Estonia Sinking Claims 852 Lives (http://shipwreckology.com/2012/09/28/september-28-1994-ms-estonia-sinking-claims-852-lives/)</description>
			<styleUrl>#icon-22</styleUrl>
			<Point>
				<coordinates>21.666667,59.38333300000001,0</coordinates>
			</Point>
		</Placemark>
		<Placemark>
			<name>Wreck of M/V Le Joola</name>
			<description>Tenth Anniversary of M/V Le Joola Tragedy (http://shipwreckology.com/2012/09/26/tenth-anniversary-of-mv-le-joola-tragedy/)</description>
			<styleUrl>#icon-22</styleUrl>
			<Point>
				<coordinates>-16.935425,13.437709,0</coordinates>
			</Point>
		</Placemark>
		<Placemark>
			<name>LST 393 Museum Ship</name>
			<description>Museum Ship Mondays - LST 393 (http://shipwreckology.com/2012/09/24/museum-ship-mondays-lst-393/)</description>
			<styleUrl>#icon-22</styleUrl>
			<Point>
				<coordinates>-86.25726899999999,43.233378,0</coordinates>
			</Point>
		</Placemark>
		<Placemark>
			<name>Wreck of Ella Warley</name>
			<description>FL Man Arrests $1,200,000 Civil War Era Shipwreck off Jersey Shore (http://shipwreckology.com/2012/09/24/fl-man-arrests-1200000-civil-war-era-shipwreck-off-jersey-shore/)</description>
			<styleUrl>#icon-22</styleUrl>
			<Point>
				<coordinates>-73.76770000000001,40.206148,0</coordinates>
			</Point>
		</Placemark>
		<Placemark>
			<name>Wreck of Bonhomme Richard</name>
			<description>&quot;I have not yet begun to fight!&quot; (http://shipwreckology.com/2012/09/23/i-have-not-yet-begun-to-fight/)</description>
			<styleUrl>#icon-22</styleUrl>
			<Point>
				<coordinates>0.173035,54.123822,0</coordinates>
			</Point>
		</Placemark>
		<Placemark>
			<name>Plundered Polish Treasure</name>
			<description>Lower Vistula River Levels Expose Plundered Polish Treasure (http://shipwreckology.com/2012/09/22/lower-vistula-river-levels-expose-plundered-polish-treasure/)</description>
			<styleUrl>#icon-22</styleUrl>
			<Point>
				<coordinates>20.944748,52.312257,0</coordinates>
			</Point>
		</Placemark>
		<Placemark>
			<name>Wreck of RMS Titanic</name>
			<description>Violet Jessop - A Charmed Life (http://shipwreckology.com/2012/09/20/violet-jessop-a-charmed-life/)</description>
			<styleUrl>#icon-22</styleUrl>
			<Point>
				<coordinates>-49.921875,41.738528,0</coordinates>
			</Point>
		</Placemark>
		<Placemark>
			<name>Wreck of RMS Brittanic</name>
			<description>Violet Jessop - A Charmed Life (http://shipwreckology.com/2012/09/20/violet-jessop-a-charmed-life/)</description>
			<styleUrl>#icon-22</styleUrl>
			<Point>
				<coordinates>24.283905,37.701479,0</coordinates>
			</Point>
		</Placemark>
		<Placemark>
			<name>Collision of RMS Olympic &amp; HMS Hawke</name>
			<description>Violet Jessop - A Charmed Life (http://shipwreckology.com/2012/09/20/violet-jessop-a-charmed-life/)</description>
			<styleUrl>#icon-22</styleUrl>
			<Point>
				<coordinates>-2.749329,56.15778799999999,0</coordinates>
			</Point>
		</Placemark>
		<Placemark>
			<name>Porcelain Shipwreck</name>
			<description><![CDATA[Vietnamese Shipwreck Reveals 14th Century Yuan Dynasty Porcelain (http://shipwreckology.com/2012/09/18/vietnamese-shipwreck-reveals-14th-century-yuan-dynasty-porcelain/)<br><br> <br>Vietnamese Porcelain Shipwreck Update (http://shipwreckology.com/2012/10/17/vietnamese-porcelain-shipwreck-update/)<br><br> <br>Australian Archaeologists Aid Vietnamese in Search for Kublai Khan's Invasion Fleet (http://shipwreckology.com/2012/10/18/australian-archaeologists-aid-vietnamese-in-search-for-kublai-khans-invasion-fleet/)]]></description>
			<styleUrl>#icon-22</styleUrl>
			<Point>
				<coordinates>108.921204,15.143718,0</coordinates>
			</Point>
		</Placemark>
		<Placemark>
			<name>USS Batfish Museum</name>
			<description>Museum Ship Mondays - USS Batfish (http://shipwreckology.com/2012/09/17/museum-ship-mondays-uss-batfish/)</description>
			<styleUrl>#icon-22</styleUrl>
			<Point>
				<coordinates>-95.310023,35.792702,0</coordinates>
			</Point>
		</Placemark>
		<Placemark>
			<name>Wreck of Bremen Merchant Submaine</name>
			<description>20,000 Leagues Under the Blockade (http://shipwreckology.com/2012/09/16/20000-leagues-under-the-blockade/)</description>
			<styleUrl>#icon-22</styleUrl>
			<Point>
				<coordinates>-59.677734,42.488302,0</coordinates>
			</Point>
		</Placemark>
		<Placemark>
			<name>Wreck of SMS Cap Trafalgar</name>
			<description>September 14, 1914 - Duel of the Ocean Liners (http://shipwreckology.com/2012/09/14/september-14-1914-duel-of-the-ocean-liners/)</description>
			<styleUrl>#icon-22</styleUrl>
			<Point>
				<coordinates>-29.325256,-20.526396,0</coordinates>
			</Point>
		</Placemark>
		<Placemark>
			<name>Wreck of Me 323 Gigant</name>
			<description>Wreck of Luftwaffe&apos;s Largest Transport Plane Found Near Sardinia (http://shipwreckology.com/2012/09/14/wreck-of-luftwaffes-largest-plane-found-near-sardinia/)</description>
			<styleUrl>#icon-22</styleUrl>
			<Point>
				<coordinates>9.441719000000001,41.25277400000001,0</coordinates>
			</Point>
		</Placemark>
		<Placemark>
			<name>Wreck of Ilmarinen</name>
			<description>September 13, 1941 - Finnish Navy&apos;s Costliest Disaster</description>
			<styleUrl>#icon-22</styleUrl>
			<Point>
				<coordinates>21.799622,59.32618399999999,0</coordinates>
			</Point>
		</Placemark>
		<Placemark>
			<name>Wreck of Dutch East Indiaman Aagtekerke</name>
			<description>Dutch East Indiaman Believed Found Off Coast of Australia (http://shipwreckology.com/2012/09/11/dutch-east-indiaman-believed-found-off-coast-of-western-australia/)</description>
			<styleUrl>#icon-22</styleUrl>
			<Point>
				<coordinates>113.796387,-28.497661,0</coordinates>
			</Point>
		</Placemark>
		<Placemark>
			<name>Battle of Lake Erie</name>
			<description>&quot;We have met the enemy and they are ours&quot; (http://shipwreckology.com/2012/09/10/we-have-met-the-enemy-and-they-are-ours/)</description>
			<styleUrl>#icon-22</styleUrl>
			<Point>
				<coordinates>-83.471375,45.33911500000001,0</coordinates>
			</Point>
		</Placemark>
		<Placemark>
			<name>Two Roman Shipwrecks</name>
			<description>Trio of Mediterranean Shipwrecks Add to Knowledge of Greek &amp; Roman Era</description>
			<styleUrl>#icon-22</styleUrl>
			<Point>
				<coordinates>34.199753,36.470718,0</coordinates>
			</Point>
		</Placemark>
		<Placemark>
			<name>Mazotos Wreck</name>
			<description>Trio of Mediterranean Shipwrecks Add to Knowledge of Greek &amp; Roman Era</description>
			<styleUrl>#icon-22</styleUrl>
			<Point>
				<coordinates>33.598938,34.746126,0</coordinates>
			</Point>
		</Placemark>
		<Placemark>
			<name>Chicago Viking Museum Ship</name>
			<description>Museum Ship Mondays - Vikings in Chicago This Weekend (http://shipwreckology.com/2012/09/10/vikings-in-chicago-this-weekend/)</description>
			<styleUrl>#icon-22</styleUrl>
			<Point>
				<coordinates>-88.29111100000002,41.894195,0</coordinates>
			</Point>
		</Placemark>
		<Placemark>
			<name>SS Morro Castle Disaster</name>
			<description>September 8, 1934 - SS Morro Castle Disaster Leads to Improved Maritime Safety (http://shipwreckology.com/2012/09/08/september-8-1934-ss-morro-castle-disaster-leads-to-improved-maritime-safety/)</description>
			<styleUrl>#icon-22</styleUrl>
			<Point>
				<coordinates>-73.99424999999999,40.228104,0</coordinates>
			</Point>
		</Placemark>
		<Placemark>
			<name>Marble Boat</name>
			<description>Empress Ci Xi&apos;s White Elephant (http://shipwreckology.com/2012/09/07/empress-ci-xis-white-elephant/)</description>
			<styleUrl>#icon-22</styleUrl>
			<Point>
				<coordinates>116.268997,39.996586,0</coordinates>
			</Point>
		</Placemark>
		<Placemark>
			<name>Wreck of Queen Anne&apos;s Revenge</name>
			<description>Dive Expedition to Blackbeard&apos;s Ship Begins Next Week (http://shipwreckology.com/2012/09/06/dive-expedition-to-blackbeards-ship-begins-this-week/)</description>
			<styleUrl>#icon-22</styleUrl>
			<Point>
				<coordinates>-76.71907400000001,34.671617,0</coordinates>
			</Point>
		</Placemark>
		<Placemark>
			<name>Shipwrecked Champagne</name>
			<description>Shipwrecked Champagne to be Auctioned Off in Finland (http://shipwreckology.com/2012/09/05/shipwrecked-champagne-to-be-auctioned-off-in-finland/)</description>
			<styleUrl>#icon-22</styleUrl>
			<Point>
				<coordinates>20.17089800000001,59.93575199999999,0</coordinates>
			</Point>
		</Placemark>
		<Placemark>
			<name>Mary Rose Museum</name>
			<description>Museum Ship Mondays - Mary Rose (http://shipwreckology.com/2012/10/08/museum-ship-mondays-mary-rose/)</description>
			<styleUrl>#icon-22</styleUrl>
			<Point>
				<coordinates>-1.107237,50.79918100000001,0</coordinates>
			</Point>
		</Placemark>
		<Placemark>
			<name>Wreck of SMS Ostfriesland, USS Virginia &amp; USS New Jersey</name>
			<description>September 5, 1923 - US Planes Sink 2 Battleships off Coast of Virginia in Bombing Test (http://shipwreckology.com/2012/09/05/september-5-1923-us-planes-sink-2-battleships-off-virginia-coast-in-bombing-test/)</description>
			<styleUrl>#icon-22</styleUrl>
			<Point>
				<coordinates>-74.5675,37.152222,0</coordinates>
			</Point>
		</Placemark>
		<Placemark>
			<name>Wreck of HMS Hood</name>
			<description>Microsoft Co-Founder Ends Expedition to Recover HMS Hood&apos;s Bell (http://shipwreckology.com/2012/09/04/microsoft-co-founder-ends-expedition-to-recover-hms-hoods-bell/)</description>
			<styleUrl>#icon-22</styleUrl>
			<Point>
				<coordinates>-31.833315,63.33326000000001,0</coordinates>
			</Point>
		</Placemark>
		<Placemark>
			<name>Wreck of Olinda</name>
			<description>September 3, 1939 - Royal Navy Claims First Victory of World War Two (http://shipwreckology.com/2012/09/03/september-3-1939-royal-navy-claims-first-victory-of-world-war-two/)</description>
			<styleUrl>#icon-22</styleUrl>
			<Point>
				<coordinates>-54.53613299999999,-35.82672100000001,0</coordinates>
			</Point>
		</Placemark>
		<Placemark>
			<name>Wreck of K-159</name>
			<description>August 30, 2003 - Russian Sub K-159 Sinks in Barents Sea (http://shipwreckology.com/2012/08/30/august-30-2003-russian-sub-k-159-sinks-in-barents-sea/)</description>
			<styleUrl>#icon-22</styleUrl>
			<Point>
				<coordinates>33.825188,69.37730500000001,0</coordinates>
			</Point>
		</Placemark>
		<Placemark>
			<name>Pouto Point Shipwreck</name>
			<description>New Zealand Shipwreck Discovered in 1982 Now Believed to Pre-Date Captain Cook&apos;s Voyages (http://shipwreckology.com/2012/08/29/new-zealand-shipwreck-discovered-in-1982-now-believed-to-pre-date-captain-cooks-voyages/)</description>
			<styleUrl>#icon-22</styleUrl>
			<Point>
				<coordinates>173.924561,-36.394757,0</coordinates>
			</Point>
		</Placemark>
		<Placemark>
			<name>Erastothenes Seamount</name>
			<description>Robert Ballard Completes Two Week Expedition Off Cyprus (http://shipwreckology.com/2012/08/29/robert-ballard-completes-two-week-expedition-off-cyprus/)</description>
			<styleUrl>#icon-22</styleUrl>
			<Point>
				<coordinates>32.662354,33.806538,0</coordinates>
			</Point>
		</Placemark>
		<Placemark>
			<name>Wreck of USS Grunion</name>
			<description>Book Review - Fatal Dive (http://shipwreckology.com/2012/08/28/book-review-fatal-dive/)</description>
			<styleUrl>#icon-22</styleUrl>
			<Point>
				<coordinates>177.41684,52.235369,0</coordinates>
			</Point>
		</Placemark>
		<Placemark>
			<name>Charleston&apos;s Civil War Naval Battlefields</name>
			<description>Mapping of Charleston&apos;s Civil War Naval Battlefields Completed (http://shipwreckology.com/2012/08/27/mapping-of-charlestons-civil-war-naval-battlefield-completed/)</description>
			<styleUrl>#icon-22</styleUrl>
			<Point>
				<coordinates>-79.87468200000001,32.752199,0</coordinates>
			</Point>
		</Placemark>
		<Placemark>
			<name>Wreck of Wilhelm Gustloff</name>
			<description><![CDATA[Wilhelm Gustloff - The Forgotten Disaster (http://shipwreckology.com/2012/08/25/wilhelm-gustloff-the-forgotten-disaster/)<br>Book Review - Death in the Baltic (http://shipwreckology.com/2013/05/18/book-review-death-in-the-baltic/)]]></description>
			<styleUrl>#icon-22</styleUrl>
			<Point>
				<coordinates>17.4213,55.0729,0</coordinates>
			</Point>
		</Placemark>
		<Placemark>
			<name>Aral Sea</name>
			<description>Shipwrecks in the Desert (http://shipwreckology.com/2012/08/24/shipwrecks-in-the-desert/)</description>
			<styleUrl>#icon-22</styleUrl>
			<Point>
				<coordinates>59.45800799999999,44.394542,0</coordinates>
			</Point>
		</Placemark>
		<Placemark>
			<name>Wreck of SS Richard Montgomery</name>
			<description>SS Richard Montgomery + 1,500 tons of TNT = Serious Navigational Hazard (http://shipwreckology.com/2012/08/23/doomsday-ship-of-the-english-coast-ss-richard-montgomery/)</description>
			<styleUrl>#icon-22</styleUrl>
			<Point>
				<coordinates>0.7862090000000001,51.46470300000001,0</coordinates>
			</Point>
		</Placemark>
		<Placemark>
			<name>Birka Viking Village</name>
			<description>Viking Ruins Found by Divers in Sweden (http://shipwreckology.com/2012/08/22/viking-ruins-found-by-divers-in-sweden/)</description>
			<styleUrl>#icon-22</styleUrl>
			<Point>
				<coordinates>17.545467,59.33621100000001,0</coordinates>
			</Point>
		</Placemark>
		<Placemark>
			<name>Sir Ernest Shackleton&apos;s Base Camp</name>
			<description>Shackleton&apos;s Whiskey (http://shipwreckology.com/2012/08/22/shackletons-whiskey/)</description>
			<styleUrl>#icon-22</styleUrl>
			<Point>
				<coordinates>166.149995,-77.550004,0</coordinates>
			</Point>
		</Placemark>
		<Placemark>
			<name>SS United States</name>
			<description>Book Review - A Man and His Ship (http://shipwreckology.com/2012/08/21/book-review-a-man-and-his-ship/)</description>
			<styleUrl>#icon-22</styleUrl>
			<Point>
				<coordinates>-75.136871,39.917883,0</coordinates>
			</Point>
		</Placemark>
		<Placemark>
			<name>Wreck of SS Terra Nova</name>
			<description>SS Terra Nova Discovered Off Coast of Greenland (http://shipwreckology.com/2012/08/21/ss-terra-nova-discovered-off-coast-of-greenland/)</description>
			<styleUrl>#icon-22</styleUrl>
			<Point>
				<coordinates>-45.929167,60.25416700000001,0</coordinates>
			</Point>
		</Placemark>
		<Placemark>
			<name>Wreck of Awa Maru</name>
			<description>Awa Maru - A Cautionary Tale of Deep Sea Treasure Hunting</description>
			<styleUrl>#icon-22</styleUrl>
			<Point>
				<coordinates>120.055847,25.429633,0</coordinates>
			</Point>
		</Placemark>
		<Placemark>
			<name>HMS Namur</name>
			<description>Former Royal Navy Flagship Discovered Beneath Factory Floorboards (http://shipwreckology.com/2012/08/18/former-royal-navy-flagship-discovered-beneath-factory-floorboards/)</description>
			<styleUrl>#icon-22</styleUrl>
			<Point>
				<coordinates>0.528545,51.39478799999999,0</coordinates>
			</Point>
		</Placemark>
		<Placemark>
			<name>Wreck of SS Islander</name>
			<description>Salvage Permit Issued for Lost Klondike Bars (of Gold)</description>
			<styleUrl>#icon-22</styleUrl>
			<Point>
				<coordinates>-134.7885,58.3765,0</coordinates>
			</Point>
		</Placemark>
		<Placemark>
			<name>Wreck of Costa Concordia</name>
			<description>Costa Concordia Salvage Delayed (http://shipwreckology.com/2012/08/17/costa-concordia-salvage-delayed/)</description>
			<styleUrl>#icon-22</styleUrl>
			<Point>
				<coordinates>10.9214,42.365347,0</coordinates>
			</Point>
		</Placemark>
		<Placemark>
			<name>Wreck of Steamboat Montana</name>
			<description>Life on the Mississippi (http://shipwreckology.com/2012/08/16/life-on-the-mississippi/)</description>
			<styleUrl>#icon-22</styleUrl>
			<Point>
				<coordinates>-90.466944,38.794722,0</coordinates>
			</Point>
		</Placemark>
		<Placemark>
			<name>Baltic Sea UFO</name>
			<description>Baltic Sea UFO (http://shipwreckology.com/2012/08/16/baltic-sea-ufo/)</description>
			<styleUrl>#icon-22</styleUrl>
			<Point>
				<coordinates>19.379883,62.088458,0</coordinates>
			</Point>
		</Placemark>
		<Placemark>
			<name>Jonkoping Champagne</name>
			<description>Baltic Sea UFO (http://shipwreckology.com/2012/08/16/baltic-sea-ufo/)</description>
			<styleUrl>#icon-22</styleUrl>
			<Point>
				<coordinates>21.405487,61.13594400000001,0</coordinates>
			</Point>
		</Placemark>
		<Placemark>
			<name>Wreck of SS Central America</name>
			<description>SS Central America Still Making Waves (http://shipwreckology.com/2012/08/15/ss-central-america-still-making-waves/)</description>
			<styleUrl>#icon-22</styleUrl>
			<Point>
				<coordinates>-77.033333,31.583333,0</coordinates>
			</Point>
		</Placemark>
		<Placemark>
			<name>Wreck of HMB Endeavour</name>
			<description><![CDATA[Plans Afoot to Identify Captain Cook's Endeavour (http://shipwreckology.com/2012/08/15/ss-central-america-still-making-waves/)<br>Museum Ship Mondays - HMB Endeavour (http://shipwreckology.com/2012/10/15/museum-ship-mondays-hmb-endeavour/)]]></description>
			<styleUrl>#icon-22</styleUrl>
			<Point>
				<coordinates>-71.369591,41.746085,0</coordinates>
			</Point>
		</Placemark>
		<Placemark>
			<name>Wreck of La Belle</name>
			<description>Freeze Dried Shipwreck, Some Assembly Required (http://shipwreckology.com/2012/08/15/freeze-dried-shipwreck-some-assembly-required/)</description>
			<styleUrl>#icon-22</styleUrl>
			<Point>
				<coordinates>-96.319885,28.544719,0</coordinates>
			</Point>
		</Placemark>
		<Placemark>
			<name>Operation Albion</name>
			<description>Battle in the Baltic - Operation Albion (http://shipwreckology.com/2012/10/12/battle-in-the-baltic-operation-albion/)</description>
			<styleUrl>#icon-22</styleUrl>
			<Point>
				<coordinates>22.93396,58.645511,0</coordinates>
			</Point>
		</Placemark>
		<Placemark>
			<name>First Running of the America&apos;s Cup</name>
			<description>America&apos;s Cup&apos;s Civil War Connection (http://shipwreckology.com/2012/10/13/americas-cups-civil-war-connection/)</description>
			<styleUrl>#icon-22</styleUrl>
			<Point>
				<coordinates>-1.482468,50.61897399999999,0</coordinates>
			</Point>
		</Placemark>
		<Placemark>
			<name>Yacht America Scuttled</name>
			<description>America&apos;s Cup&apos;s Civil War Connection (http://shipwreckology.com/2012/10/13/americas-cups-civil-war-connection/)</description>
			<styleUrl>#icon-22</styleUrl>
			<Point>
				<coordinates>-81.627731,30.375837,0</coordinates>
			</Point>
		</Placemark>
		<Placemark>
			<name>Wreck of CSS Georgiana</name>
			<description>America&apos;s Cup&apos;s Civil War Connection (http://shipwreckology.com/2012/10/13/americas-cups-civil-war-connection/)</description>
			<styleUrl>#icon-22</styleUrl>
			<Point>
				<coordinates>-79.83078,32.746858,0</coordinates>
			</Point>
		</Placemark>
		<Placemark>
			<name>San Diego Maritime Museum</name>
			<description>America&apos;s Cup&apos;s Civil War Connection (http://shipwreckology.com/2012/10/13/americas-cups-civil-war-connection/)</description>
			<styleUrl>#icon-22</styleUrl>
			<Point>
				<coordinates>-117.17391,32.720902,0</coordinates>
			</Point>
		</Placemark>
		<Placemark>
			<name>Blockade Runner Davy Crocket Captured</name>
			<description>America&apos;s Cup&apos;s Civil War Connection (http://shipwreckology.com/2012/10/13/americas-cups-civil-war-connection/)</description>
			<styleUrl>#icon-22</styleUrl>
			<Point>
				<coordinates>-79.871979,32.700644,0</coordinates>
			</Point>
		</Placemark>
		<Placemark>
			<name>HMB Endeavour Museum Ship</name>
			<description>Museum Ship Monday&apos;s - HMB Endeavour (http://shipwreckology.com/category/oceanian-shipwrecks/)</description>
			<styleUrl>#icon-22</styleUrl>
			<Point>
				<coordinates>151.198525,-33.86981,0</coordinates>
			</Point>
		</Placemark>
		<Placemark>
			<name>Wreck of Royal Navy sub J6</name>
			<description>HMS Cymric - An Unlucky Ship in War and Peace (http://shipwreckology.com/2012/10/15/hms-cymric-an-unlucky-ship-in-war-and-peace/)</description>
			<styleUrl>#icon-22</styleUrl>
			<Point>
				<coordinates>-1.592331,55.598523,0</coordinates>
			</Point>
		</Placemark>
		<Placemark>
			<name>Cymric Strikes Tram</name>
			<description>HMS Cymric - An Unlucky Ship in War and Peace (http://shipwreckology.com/2012/10/15/hms-cymric-an-unlucky-ship-in-war-and-peace/)</description>
			<styleUrl>#icon-22</styleUrl>
			<Point>
				<coordinates>-6.2253,53.34573500000001,0</coordinates>
			</Point>
		</Placemark>
		<Placemark>
			<name>Cymric Disappears with All Hands</name>
			<description>HMS Cymric - An Unlucky Ship in War and Peace (http://shipwreckology.com/2012/10/15/hms-cymric-an-unlucky-ship-in-war-and-peace/)</description>
			<styleUrl>#icon-22</styleUrl>
			<Point>
				<coordinates>-17.490234,50.289339,0</coordinates>
			</Point>
		</Placemark>
		<Placemark>
			<name>Belle of the Night Riverboat</name>
			<description>Vessel in Distress - Belle of the Night (http://shipwreckology.com/2012/10/17/vessel-in-distress-belle-of-the-night/)</description>
			<styleUrl>#icon-22</styleUrl>
			<Point>
				<coordinates>-90.475416,38.930404,0</coordinates>
			</Point>
		</Placemark>
		<Placemark>
			<name>Belle of the Night Riverboat</name>
			<description>Vessel in Distress - Belle of the Night (http://shipwreckology.com/2012/10/17/vessel-in-distress-belle-of-the-night/)</description>
			<styleUrl>#icon-22</styleUrl>
			<Point>
				<coordinates>-90.18324900000002,38.624716,0</coordinates>
			</Point>
		</Placemark>
		<Placemark>
			<name>Battle of Bach Dang</name>
			<description>Australian Archaeologists Aid Vietnamese in Search for Kublai Khan&apos;s Invasion Fleet (http://shipwreckology.com/2012/10/18/australian-archaeologists-aid-vietnamese-in-search-for-kublai-khans-invasion-fleet/)</description>
			<styleUrl>#icon-22</styleUrl>
			<Point>
				<coordinates>106.908646,20.889608,0</coordinates>
			</Point>
		</Placemark>
		<Placemark>
			<name>Wreck of HMS Dasher</name>
			<description>Excavation Planned for World War II Mass Grave of British Sailors (http://shipwreckology.com/2012/10/19/search-begun-for-world-war-ii-mass-grave-of-british-sailors/)</description>
			<styleUrl>#icon-22</styleUrl>
			<Point>
				<coordinates>-5.001667,55.610556,0</coordinates>
			</Point>
		</Placemark>
		<Placemark>
			<name>Battle of Trafalgar</name>
			<description>&quot;England expects that every man will do his duty.&quot;</description>
			<styleUrl>#icon-22</styleUrl>
			<Point>
				<coordinates>-6.255341000000001,36.288563,0</coordinates>
			</Point>
		</Placemark>
		<Placemark>
			<name>Viking Settlement at L&apos;Anse aux Meadows</name>
			<description>Further Evidence of Viking Contact with North America Uncovered (http://shipwreckology.com/2012/10/21/further-evidence-of-viking-contact-with-north-america-uncovered/)</description>
			<styleUrl>#icon-22</styleUrl>
			<Point>
				<coordinates>-55.53116799999999,51.59520199999999,0</coordinates>
			</Point>
		</Placemark>
		<Placemark>
			<name>Viking Outpost on Baffin Island</name>
			<description>Further Evidence of Viking Contact with North America Uncovered (http://shipwreckology.com/2012/10/21/further-evidence-of-viking-contact-with-north-america-uncovered/)</description>
			<styleUrl>#icon-22</styleUrl>
			<Point>
				<coordinates>-86.00097700000001,71.194838,0</coordinates>
			</Point>
		</Placemark>
		<Placemark>
			<name>National Museum of the Pacific War</name>
			<description>Museum Ship Monday - Japanese Midget Submarine HA-19 (http://shipwreckology.com/2012/10/22/museum-ship-monday-japanese-midget-submarine-ha-19/)</description>
			<styleUrl>#icon-22</styleUrl>
			<Point>
				<coordinates>-98.86733999999998,30.271762,0</coordinates>
			</Point>
		</Placemark>
		<Placemark>
			<name>Wreck of Japanese Midget Submarine HA-19</name>
			<description>Museum Ship Monday - Japanese Midget Submarine HA-19 (http://shipwreckology.com/2012/10/22/museum-ship-monday-japanese-midget-submarine-ha-19/)</description>
			<styleUrl>#icon-22</styleUrl>
			<Point>
				<coordinates>-157.700672,21.347264,0</coordinates>
			</Point>
		</Placemark>
		<Placemark>
			<name>Wreck of Roman Era Merchant Ship</name>
			<description>Dive Operations Begin on Roman Era Shipwreck off Portimao, Portugal</description>
			<styleUrl>#icon-22</styleUrl>
			<Point>
				<coordinates>-8.527966000000001,37.128434,0</coordinates>
			</Point>
		</Placemark>
		<Placemark>
			<name>Kalakala Ferry</name>
			<description>Vessel in Distress - Kalakala Ferry (http://shipwreckology.com/2012/10/24/vessel-in-distress-kalakala-ferry/)</description>
			<styleUrl>#icon-22</styleUrl>
			<Point>
				<coordinates>-122.386386,47.27499300000001,0</coordinates>
			</Point>
		</Placemark>
		<Placemark>
			<name>Attack on CSS Albemarle</name>
			<description>Grandfather of the US Navy SEALs - Lt. William B. Cushing (http://shipwreckology.com/2012/10/27/grandfather-of-the-us-navy-seals-lt-william-b-cushing/)</description>
			<styleUrl>#icon-22</styleUrl>
			<Point>
				<coordinates>-76.752055,35.867317,0</coordinates>
			</Point>
		</Placemark>
		<Placemark>
			<name>West Baton Rouge History Museum</name>
			<description>Museum Ship Monday - The Mardi Gras Shipwreck (http://shipwreckology.com/2012/10/29/museum-ship-monday-the-mardi-gras-shipwreck/)</description>
			<styleUrl>#icon-22</styleUrl>
			<Point>
				<coordinates>-91.206007,30.460253,0</coordinates>
			</Point>
		</Placemark>
		<Placemark>
			<name>M/V Liemba</name>
			<description>Vessel in Distress - M/V Liemba (http://shipwreckology.com/2012/10/31/vessel-in-distress-mv-liemba/)</description>
			<styleUrl>#icon-22</styleUrl>
			<Point>
				<coordinates>34.623413,-11.205345,0</coordinates>
			</Point>
		</Placemark>
		<Placemark>
			<name>Wreck of M/V Atlantic Conveyor</name>
			<description>A Mariner You Should Know - Captain Ian North (http://shipwreckology.com/2012/11/01/a-mariner-you-should-know-captain-ian-north/)</description>
			<styleUrl>#icon-22</styleUrl>
			<Point>
				<coordinates>-54.46472200000001,-50.684278,0</coordinates>
			</Point>
		</Placemark>
		<Placemark>
			<name>Falls of Clyde</name>
			<description>Vessel in Distress - Falls of Clyde (http://shipwreckology.com/2012/11/07/vessel-in-distress-falls-of-clyde/)</description>
			<styleUrl>#icon-22</styleUrl>
			<Point>
				<coordinates>-157.868729,21.305688,0</coordinates>
			</Point>
		</Placemark>
		<Placemark>
			<name>Royal Navy Assault on Algiers (1816)</name>
			<description>Book Review - Commander (http://shipwreckology.com/2012/11/06/book-review-commander/)</description>
			<styleUrl>#icon-22</styleUrl>
			<Point>
				<coordinates>3.078232,36.772717,0</coordinates>
			</Point>
		</Placemark>
		<Placemark>
			<name>Arkansas Inland Maritime Museum</name>
			<description>Museum Ship Monday - USS Razorback (http://shipwreckology.com/2012/11/12/museum-ship-monday-uss-razorback/)</description>
			<styleUrl>#icon-22</styleUrl>
			<Point>
				<coordinates>-92.26683699999998,34.752222,0</coordinates>
			</Point>
		</Placemark>
		<Placemark>
			<name>Wreck of SS City of Medicine Hat</name>
			<description>Canadian Steamer SS City of Medicine Hat Discovered in Saskatchewan (http://shipwreckology.com/2012/11/18/canadian-steamer-ss-city-of-medicine-hat-discovered-in-saskatchewan/)</description>
			<styleUrl>#icon-22</styleUrl>
			<Point>
				<coordinates>-106.650381,52.12964199999999,0</coordinates>
			</Point>
		</Placemark>
		<Placemark>
			<name>SS Robin Museum Ship</name>
			<description>Museum Ship Monday - SS Robin (http://shipwreckology.com/2012/11/19/museum-ship-monday-ss-robin/)</description>
			<styleUrl>#icon-22</styleUrl>
			<Point>
				<coordinates>-0.021157,51.50671200000001,0</coordinates>
			</Point>
		</Placemark>
		<Placemark>
			<name>Wreck of HMAS Sydney</name>
			<description>Pyrrhic Victory - HMAS Sydney vs. HSK Kormoran (http://shipwreckology.com/2012/11/19/pyrrhic-victory-hmas-sydney-vs-hsk-kormoran/)</description>
			<styleUrl>#icon-22</styleUrl>
			<Point>
				<coordinates>111.225586,-26.244156,0</coordinates>
			</Point>
		</Placemark>
		<Placemark>
			<name>Wreck of HSK Kormoran</name>
			<description>Pyrrhic Victory - HMAS Sydney vs. HSK Kormoran (http://shipwreckology.com/2012/11/19/pyrrhic-victory-hmas-sydney-vs-hsk-kormoran/)</description>
			<styleUrl>#icon-22</styleUrl>
			<Point>
				<coordinates>111.071777,-26.115986,0</coordinates>
			</Point>
		</Placemark>
		<Placemark>
			<name>Operation Chariot</name>
			<description>Book Review - Hunting Tirpitz (http://www.navyhistory.org/2012/11/book-review-hunting-tirpitz-royal-navy-operations-against-bismarcks-sister-ship/)</description>
			<styleUrl>#icon-22</styleUrl>
			<Point>
				<coordinates>-2.198467,47.28214,0</coordinates>
			</Point>
		</Placemark>
		<Placemark>
			<name>Operation Source &amp; Operation Tungsten</name>
			<description>Book Review - Hunting Tirpitz (http://www.navyhistory.org/2012/11/book-review-hunting-tirpitz-royal-navy-operations-against-bismarcks-sister-ship/)</description>
			<styleUrl>#icon-22</styleUrl>
			<Point>
				<coordinates>23.105621,70.195807,0</coordinates>
			</Point>
		</Placemark>
		<Placemark>
			<name>Battleship USS North Carolina</name>
			<description>Museum Ship Monday - USS North Carolina (http://shipwreckology.com/2012/11/26/museum-ship-monday-uss-north-carolina/)</description>
			<styleUrl>#icon-22</styleUrl>
			<Point>
				<coordinates>-77.954221,34.236632,0</coordinates>
			</Point>
		</Placemark>
		<Placemark>
			<name>Wreck of Resande Man</name>
			<description>Resande Man (http://shipwreckology.com/2012/11/26/resande-man/)</description>
			<styleUrl>#icon-22</styleUrl>
			<Point>
				<coordinates>17.983246,58.798094,0</coordinates>
			</Point>
		</Placemark>
		<Placemark>
			<name>CSS Florida Sinks Under Mysterious Circumstances</name>
			<description>CSS Florida (http://shipwreckology.com/2012/11/28/css-florida/)</description>
			<styleUrl>#icon-22</styleUrl>
			<Point>
				<coordinates>-76.32614100000001,36.980615,0</coordinates>
			</Point>
		</Placemark>
		<Placemark>
			<name>CSS Florida Rammed &amp; Captrued</name>
			<description>CSS Florida (http://shipwreckology.com/2012/11/28/css-florida/)</description>
			<styleUrl>#icon-22</styleUrl>
			<Point>
				<coordinates>-38.565445,-12.929615,0</coordinates>
			</Point>
		</Placemark>
		<Placemark>
			<name>Pax River NAS - X-47B</name>
			<description>US Navy Deploys X-47B Unmanned Carrier Aircraft System for Shipboard Tests (http://shipwreckology.com/2012/11/29/us-navy-deploys-x-47b-unmanned-carrier-aircraft-system-for-shipboard-tests/)</description>
			<styleUrl>#icon-22</styleUrl>
			<Point>
				<coordinates>-76.41334500000001,38.292631,0</coordinates>
			</Point>
		</Placemark>
		<Placemark>
			<name>HMCS Sackville Museum Ship</name>
			<description>Museum Ship Monday - HMCS Sackville (http://shipwreckology.com/2012/12/03/museum-ship-monday-hmcs-sackville/)</description>
			<styleUrl>#icon-22</styleUrl>
			<Point>
				<coordinates>-63.56998400000001,44.647647,0</coordinates>
			</Point>
		</Placemark>
		<Placemark>
			<name>ARA Libertad Seized</name>
			<description>Argentinian Naval Training Vessel Held As Collateral To Repay Jilted Bondholders (http://shipwreckology.com/2012/12/16/argentinian-naval-training-vessel-held-as-collateral-to-repay-jilted-bondholders/)</description>
			<styleUrl>#icon-22</styleUrl>
			<Point>
				<coordinates>-0.220242,5.525691,0</coordinates>
			</Point>
		</Placemark>
		<Placemark>
			<name>Wreck of Soviet WWII Submarine S-6</name>
			<description>WWII Soviet Sub Discovered in Baltic Sea (http://shipwreckology.com/2012/12/17/wwii-soviet-sub-discovered-in-baltic-sea/)</description>
			<styleUrl>#icon-22</styleUrl>
			<Point>
				<coordinates>16.940918,56.67132,0</coordinates>
			</Point>
		</Placemark>
		<Placemark>
			<name>Wreck of Nazi Pocket Battleship Graf Spee</name>
			<description>Death Comes for the Admiral (http://shipwreckology.com/2012/12/18/death-comes-for-the-admiral/)</description>
			<styleUrl>#icon-22</styleUrl>
			<Point>
				<coordinates>-56.10717800000001,-35.339774,0</coordinates>
			</Point>
		</Placemark>
		<Placemark>
			<name>SEALs sink Manuel Noriega&apos;s Yacht</name>
			<description>When in Doubt, Use More C4 (http://shipwreckology.com/2012/12/20/when-all-else-fails-use-c4/)</description>
			<styleUrl>#icon-22</styleUrl>
			<Point>
				<coordinates>-79.56728,8.957822999999999,0</coordinates>
			</Point>
		</Placemark>
		<Placemark>
			<name>Wreck of SS Athenia</name>
			<description>BOOK REVIEW – Athenia Torpedoed: The U-Boat Attack That Ignited the Battle of the Atlantic (http://www.navyhistory.org/2012/12/book-review-athenia-torpedoed-u-boat-attack-that-ignited-battle-of-atlantic/)</description>
			<styleUrl>#icon-22</styleUrl>
			<Point>
				<coordinates>-14.084473,56.72259400000002,0</coordinates>
			</Point>
		</Placemark>
		<Placemark>
			<name>Wreck of German Battlecruiser Scharnhorst</name>
			<description>Battle of North Cape - Adolf Hitler&apos;s Belated Christmas Gift from the Royal Navy (http://shipwreckology.com/2012/12/26/battle-of-north-cape-adolf-hitlers-belated-christmas-gift-from-the-royal-navy/)</description>
			<styleUrl>#icon-22</styleUrl>
			<Point>
				<coordinates>28.685303,72.25561500000001,0</coordinates>
			</Point>
		</Placemark>
		<Placemark>
			<name>Bering Sea</name>
			<description>A Mariner You Should Know - Vitus Bering (http://shipwreckology.com/2012/12/29/a-mariner-you-should-know-vitus-bering/)</description>
			<styleUrl>#icon-22</styleUrl>
			<Point>
				<coordinates>-179.648437,57.32652100000001,0</coordinates>
			</Point>
		</Placemark>
		<Placemark>
			<name>SS Knud Grounding</name>
			<description>Dramatic Danish Grounding (http://shipwreckology.com/2013/01/02/dramatic-danish-grounding-ss-knud/)</description>
			<styleUrl>#icon-22</styleUrl>
			<Point>
				<coordinates>-0.5281590000000001,54.434883,0</coordinates>
			</Point>
		</Placemark>
		<Placemark>
			<name>Maury River</name>
			<description>Pathfinder of the Seas (http://shipwreckology.com/2013/01/14/pathfinder-of-the-seas/)</description>
			<styleUrl>#icon-22</styleUrl>
			<Point>
				<coordinates>-79.431603,37.793525,0</coordinates>
			</Point>
		</Placemark>
		<Placemark>
			<name>Fort Fisher</name>
			<description>For Fisher - Gibraltar of the South (http://shipwreckology.com/2013/01/15/fort-fisher-gibraltar-of-the-south/)</description>
			<styleUrl>#icon-22</styleUrl>
			<Point>
				<coordinates>-77.917421,33.971961,0</coordinates>
			</Point>
		</Placemark>
		<Placemark>
			<name>Makin Atoll</name>
			<description>The Marine Raiders of WWII (http://shipwreckology.com/2013/01/08/the-marine-raiders-of-wwii/)</description>
			<styleUrl>#icon-22</styleUrl>
			<Point>
				<coordinates>172.809448,3.030812,0</coordinates>
			</Point>
		</Placemark>
		<Placemark>
			<name>Nuclear Ship Savannah</name>
			<description>Nuclear Ship Savannah (http://shipwreckology.com/2013/01/10/nuclear-ship-savannah/)</description>
			<styleUrl>#icon-22</styleUrl>
			<Point>
				<coordinates>-76.55540600000001,39.258285,0</coordinates>
			</Point>
		</Placemark>
		<Placemark>
			<name>Wreck of SS Savonmaa</name>
			<description>No Use in Trying to Paper Over this Wreck (http://shipwreckology.com/2013/01/20/savonmaa-january-20/)</description>
			<styleUrl>#icon-22</styleUrl>
			<Point>
				<coordinates>7.434998,57.939641,0</coordinates>
			</Point>
		</Placemark>
		<Placemark>
			<name>Wreck of HMS M2</name>
			<description>HMS M2 – The Royal Navy’s Submersible Aircraft Carrier (http://shipwreckology.com/2013/01/26/hms-m2-the-royal-navys-submersible-aircraft-carrier/)</description>
			<styleUrl>#icon-22</styleUrl>
			<Point>
				<coordinates>-2.548828,50.575388,0</coordinates>
			</Point>
		</Placemark>
		<Placemark>
			<name>USS Pueblo in Captivity</name>
			<description>Give &apos;em the Hawaiian Good Luck Sign (http://shipwreckology.com/2013/01/23/give-em-the-hawaiian-good-luck-sign/)</description>
			<styleUrl>#icon-22</styleUrl>
			<Point>
				<coordinates>125.725393,38.991037,0</coordinates>
			</Point>
		</Placemark>
		<Placemark>
			<name>USS Maine</name>
			<description>Remember the Maine! (http://shipwreckology.com/2013/02/15/remember-the-maine/)</description>
			<styleUrl>#icon-22</styleUrl>
			<Point>
				<coordinates>-82.339783,23.137203,0</coordinates>
			</Point>
		</Placemark>
		<Placemark>
			<name>Wreck of Carrol A. Deering</name>
			<description>Ghost Ship of the Carolinas (http://shipwreckology.com/2013/01/31/ghost-ship-of-the-carolinas/)</description>
			<styleUrl>#icon-22</styleUrl>
			<Point>
				<coordinates>-75.507317,35.204111,0</coordinates>
			</Point>
		</Placemark>
		<Placemark>
			<name>Battle of Santo Domingo</name>
			<description>The Battle of Santo Domingo (http://shipwreckology.com/2013/02/06/the-battle-of-santo-domingo/)</description>
			<styleUrl>#icon-22</styleUrl>
			<Point>
				<coordinates>-69.90325900000001,18.383199,0</coordinates>
			</Point>
		</Placemark>
		<Placemark>
			<name>Wreck of U-864</name>
			<description>The Hunt for U-864 (http://shipwreckology.com/2013/02/09/the-hunt-for-u-864/)</description>
			<styleUrl>#icon-22</styleUrl>
			<Point>
				<coordinates>4.620438000000001,60.769556,0</coordinates>
			</Point>
		</Placemark>
		<Placemark>
			<name>Normandie Combusts &amp; Capsizes</name>
			<description>French Liner Normandie Combusts &amp; Capsizes (http://shipwreckology.com/2013/02/09/french-liner-normandie-combusts-capsizes/)</description>
			<styleUrl>#icon-22</styleUrl>
			<Point>
				<coordinates>-73.99825199999999,40.768257,0</coordinates>
			</Point>
		</Placemark>
		<Placemark>
			<name>Wreck of General von Steuben</name>
			<description>Operation Hannibal - Nazis Flee Soviet Onslaught (http://shipwreckology.com/2013/02/10/operation-hannibal-nazis-flee-soviet-onslaught/)</description>
			<styleUrl>#icon-22</styleUrl>
			<Point>
				<coordinates>16.850967,54.682962,0</coordinates>
			</Point>
		</Placemark>
		<Placemark>
			<name>Wreck of Surcouf</name>
			<description>Surcouf - France&apos;s Contribution to the Naval Weird &amp; Unusual Hall of Fame (http://shipwreckology.com/2013/02/18/surcouf-frances-contribution-to-the-naval-weird-unusual-hall-of-fame/)</description>
			<styleUrl>#icon-22</styleUrl>
			<Point>
				<coordinates>-79.541016,10.487812,0</coordinates>
			</Point>
		</Placemark>
		<Placemark>
			<name>Wreck of S/V Speke</name>
			<description>Negligence (n.) (http://shipwreckology.com/2013/02/22/negligence-n/)</description>
			<styleUrl>#icon-22</styleUrl>
			<Point>
				<coordinates>145.247498,-38.505191,0</coordinates>
			</Point>
		</Placemark>
		<Placemark>
			<name>Khufu Ship Museum</name>
			<description>Egyptian God of Destruction Sekhmet Threatening Khufu’s Solar Barge (http://shipwreckology.com/2013/03/05/egyptian-god-of-destruction-sekhmet-threatening-khufus-solar-barge/)</description>
			<styleUrl>#icon-22</styleUrl>
			<Point>
				<coordinates>31.134245,29.978022,0</coordinates>
			</Point>
		</Placemark>
		<Placemark>
			<name>Wreck of the Baleares</name>
			<description>Battle of Cape Palos (http://shipwreckology.com/2013/03/06/battle-of-cape-palos/)</description>
			<styleUrl>#icon-22</styleUrl>
			<Point>
				<coordinates>0.8734130000000001,37.861844,0</coordinates>
			</Point>
		</Placemark>
		<Placemark>
			<name>Wreck of Blue Jacket</name>
			<description>The 6,000 Mile Voyage of Blue Jacket&apos;s Figurehead (http://shipwreckology.com/2013/03/09/the-6000-mile-voyage-of-blue-jackets-figurehead/)</description>
			<styleUrl>#icon-22</styleUrl>
			<Point>
				<coordinates>-56.05224599999999,-51.679368,0</coordinates>
			</Point>
		</Placemark>
		<Placemark>
			<name>Blue Jacket&apos;s Figurehead Comes Ashore</name>
			<description>The 6,000 Mile Voyage of Blue Jacket&apos;s Figurehead (http://shipwreckology.com/2013/03/09/the-6000-mile-voyage-of-blue-jackets-figurehead/)</description>
			<styleUrl>#icon-22</styleUrl>
			<Point>
				<coordinates>115.489655,-31.994101,0</coordinates>
			</Point>
		</Placemark>
		<Placemark>
			<name>Wreck of SS Po</name>
			<description>A Double Sinking – SS Po (http://shipwreckology.com/2013/03/14/po-steamer-sinking-twice-aint-nice/)</description>
			<styleUrl>#icon-22</styleUrl>
			<Point>
				<coordinates>19.412842,40.419247,0</coordinates>
			</Point>
		</Placemark>
		<Placemark>
			<name>Wreck of American &amp; German Naval Squadrons - 1889</name>
			<description>Apia Cyclone Resolves Diplomatic Row (http://shipwreckology.com/2013/03/16/apia-cyclone-resolves-diplomatic-row/)</description>
			<styleUrl>#icon-22</styleUrl>
			<Point>
				<coordinates>-171.763687,-13.829079,0</coordinates>
			</Point>
		</Placemark>
		<Placemark>
			<name>First Battle of Copenhagen</name>
			<description>&quot;I Really Do Not See the Signal&quot; (http://shipwreckology.com/2013/04/02/i-really-do-not-see-the-signal/)</description>
			<styleUrl>#icon-22</styleUrl>
			<Point>
				<coordinates>12.604923,55.69790499999999,0</coordinates>
			</Point>
		</Placemark>
		<Placemark>
			<name>Belgammel Ram Discovered</name>
			<description>Ramming Speed (http://shipwreckology.com/2013/04/04/ramming-speed/)</description>
			<styleUrl>#icon-22</styleUrl>
			<Point>
				<coordinates>24.02092,32.078211,0</coordinates>
			</Point>
		</Placemark>
		<Placemark>
			<name>Nazi Invasion of Norway 1940</name>
			<description>Götterdämmerung in Narvik Fjord (http://shipwreckology.com/2013/04/09/gotterdammerung-in-narvik-fjord/)</description>
			<styleUrl>#icon-22</styleUrl>
			<Point>
				<coordinates>17.297974,68.446653,0</coordinates>
			</Point>
		</Placemark>
		<Placemark>
			<name>Wreck of Sir Walter Raleigh&apos;s Flying Joan(?)</name>
			<description>Sir Walter Raleigh&apos;s Lost Ship Flying Joan Potentially Found off Isles of Scilly (http://shipwreckology.com/2013/04/13/sir-walter-raleighs-lost-ship-flying-joan-potentially-found-off-isles-of-scilly/)</description>
			<styleUrl>#icon-22</styleUrl>
			<Point>
				<coordinates>-6.327782,49.925809,0</coordinates>
			</Point>
		</Placemark>
		<Placemark>
			<name>Battle off Samar</name>
			<description>Book Review - For Crew &amp; Country (http://shipwreckology.com/2013/04/16/book-review-for-crew-country/)</description>
			<styleUrl>#icon-22</styleUrl>
			<Point>
				<coordinates>126.109314,11.477333,0</coordinates>
			</Point>
		</Placemark>
		<Placemark>
			<name>Wreck of the Riverboat Sultana</name>
			<description>Disaster on the Mississippi (http://shipwreckology.com/2013/04/27/disaster-on-the-mississippi/)</description>
			<styleUrl>#icon-22</styleUrl>
			<Point>
				<coordinates>-90.08411399999999,35.20327,0</coordinates>
			</Point>
		</Placemark>
		<Placemark>
			<name>Wreck of Kilkis &amp; Limnos</name>
			<description>The Loss of Kilkis &amp; Limnos (http://shipwreckology.com/2013/04/23/the-loss-of-kilkis-limnos/)</description>
			<styleUrl>#icon-22</styleUrl>
			<Point>
				<coordinates>23.4957,37.961422,0</coordinates>
			</Point>
		</Placemark>
		<Placemark>
			<name>Seiran Submarine Plane</name>
			<description>Book Review - Operation Storm (http://shipwreckology.com/2013/04/25/book-review-operation-storm/)</description>
			<styleUrl>#icon-22</styleUrl>
			<Point>
				<coordinates>-77.44382899999999,38.91007,0</coordinates>
			</Point>
		</Placemark>
		<Placemark>
			<name>Wreck of I-401</name>
			<description>Book Review - Operation Storm (http://shipwreckology.com/2013/04/25/book-review-operation-storm/)</description>
			<styleUrl>#icon-22</styleUrl>
			<Point>
				<coordinates>-158.400879,20.879343,0</coordinates>
			</Point>
		</Placemark>
		<Placemark>
			<name>Wreck of SS Politician</name>
			<description>Single Malt Shipwreck (http://shipwreckology.com/2013/04/27/single-malt-shipwreck/)</description>
			<styleUrl>#icon-22</styleUrl>
			<Point>
				<coordinates>-5.434113,56.52929400000001,0</coordinates>
			</Point>
		</Placemark>
		<Placemark>
			<name>Jewish Refugees Denied Asylum</name>
			<description>Voyage of the Damned (http://shipwreckology.com/2013/05/13/voyage-of-the-damned/)</description>
			<styleUrl>#icon-22</styleUrl>
			<Point>
				<coordinates>-82.38578800000001,23.152356,0</coordinates>
			</Point>
		</Placemark>
		<Placemark>
			<name>Wreck of Jascon 4</name>
			<description>Miracle Mariner - Okene Harrison (http://shipwreckology.com/2013/06/02/miracle-mariner-okene-harrison/)</description>
			<styleUrl>#icon-22</styleUrl>
			<Point>
				<coordinates>5.293007,5.384285,0</coordinates>
			</Point>
		</Placemark>
		<Placemark>
			<name>SS Canberra</name>
			<description>Book Review - A Very Strange Way to go to War (http://shipwreckology.com/2013/07/11/book-review-a-very-strange-way-to-go-to-war/)</description>
			<styleUrl>#icon-22</styleUrl>
			<Point>
				<coordinates>-57.841988,-51.68745700000001,0</coordinates>
			</Point>
		</Placemark>
		<Placemark>
			<name>Battle of the Nile</name>
			<description>Battle of the Nile (http://shipwreckology.com/2013/08/01/aboukir-bay-august-1/)</description>
			<styleUrl>#icon-22</styleUrl>
			<Point>
				<coordinates>30.19249,31.353637,0</coordinates>
			</Point>
		</Placemark>
		<Placemark>
			<name>Loss of USCG Grumman Duck</name>
			<description>Book Review - Frozen in Time (http://shipwreckology.com/2013/08/04/2761/)</description>
			<styleUrl>#icon-22</styleUrl>
			<Point>
				<coordinates>-40.612335,64.98110200000001,0</coordinates>
			</Point>
		</Placemark>
		<Placemark>
			<name>Spanish Republicans Invade Majorca</name>
			<description>Battle of Majorca (http://shipwreckology.com/2013/08/16/battle-of-majorca/)</description>
			<styleUrl>#icon-22</styleUrl>
			<Point>
				<coordinates>2.955322,39.60992000000001,0</coordinates>
			</Point>
		</Placemark>
		<Placemark>
			<name>Danish Naval Scuttling</name>
			<description>Danish Defiance (http://shipwreckology.com/2013/08/29/danish-defiance/)</description>
			<styleUrl>#icon-22</styleUrl>
			<Point>
				<coordinates>12.623978,55.703129,0</coordinates>
			</Point>
		</Placemark>
		<Placemark>
			<name>Royal George Capsizes</name>
			<description>Disaster Strikes the Royal George (http://shipwreckology.com/2013/08/29/disaster-strikes-the-royal-george/)</description>
			<styleUrl>#icon-22</styleUrl>
			<Point>
				<coordinates>-1.100693,50.775116,0</coordinates>
			</Point>
		</Placemark>
		<Placemark>
			<name>Wreck of French Battleship Liberte</name>
			<description>Beware of French Gunpowder (http://shipwreckology.com/2013/09/25/beware-of-french-gunpowder/)</description>
			<styleUrl>#icon-22</styleUrl>
			<Point>
				<coordinates>5.919399,43.111886,0</coordinates>
			</Point>
		</Placemark>
	</Folder>
</Document>
</kml>
